City,Country,Attempted Latitude,Attempted Longitude,True Latitude,True Longitude,Temperature (F),Humidity (%),Cloudiness (%),Wind Speed (mph)
punta arenas,cl,-75.21101074,-89.8930373,-53.1501,-70.9167,42.86078947,96.39473684,46.73684211,22.98842105
necochea,ar,-40.28537963,-57.81928105,-38.5473,-58.7368,53.77710526,78.47368421,40.63157895,16.69236842
shenjiamen,cn,30.69911157,123.9889549,29.9576,122.298,58.28631579,99.60526316,71.15789474,19.35657895
choix,mx,26.5219965,-108.3414763,26.7092,-108.322,65.26947368,45.92105263,0.947368421,2.212368421
mount isa,au,-18.26032086,140.2645771,-20.7334,139.5,80.16236842,32.02631579,6.947368421,8.427368421
coahuayana,mx,1.264100917,-112.3272955,18.7333,-103.6834,79.45315789,98.47368421,33.15789474,4.816578947
bluff,nz,-54.92148502,164.0863704,-46.6,168.3333,53.46394737,98.71052632,27.47368421,8.461315789
rikitea,pf,-55.74329299,-129.5259358,-23.1203,-134.9692,72.93210526,100,85.68421053,16.15421053
pailon,bo,-17.90785314,-62.03774281,-17.65,-62.75,75.42605263,82.39473684,60.52631579,8.748421053
inhambane,mz,-24.48601729,37.6866235,-23.865,35.3833,75.02368421,86.02631579,3.052631579,10.28605263
jamestown,sh,-24.41462627,-21.02469212,-15.9388,-5.7168,67.69842105,100,57.89473684,16.74578947
kodiak,us,46.58620878,-158.8463161,57.79,-152.4073,31.71078947,98.71052632,38.94736842,23.23868421
vaini,to,-22.29806353,-173.8137105,-21.2001,-175.2,77.05947368,100,42.10526316,9.258684211
ancud,cl,-42.49148475,-96.33039088,-41.8698,-73.8203,48.74921053,80.71052632,55.26315789,6.432368421
dongsheng,cn,41.05138962,109.8096014,39.8161,109.9776,15.82894737,59.92105263,14.94736842,8.236578947
chokurdakh,ru,80.65616323,145.056923,70.6333,147.9167,7.217894737,78,70.31578947,9.382105263
kapaa,us,10.6536748,-173.3958133,22.0752,-159.319,69.94052632,96.81578947,64.42105263,6.689210526
ushuaia,ar,-71.15378774,-56.03811305,-54.8,-68.3001,39.22157895,83.15789474,50.84210526,14.75236842
santa vitoria,br,-19.16593712,-50.36864617,-18.8387,-50.1214,73.03684211,95.26315789,66.84210526,6.101842105
husavik,is,80.84167894,-7.190269797,66.0449,-17.3389,27.70078947,100,73.36842105,5.852631579
cape town,za,-41.52409109,13.64867092,-33.9259,18.4232,60.55105263,93.84210526,41.78947368,11.71552632
tautira,pf,-17.00843803,-147.2916419,-17.7334,-149.15,78.72105263,99.84210526,50.31578947,15.34473684
hambantota,lk,-5.502042159,84.52586997,6.1241,81.1185,81.33342105,98.97368421,38,5.422368421
martapura,id,-4.362271031,115.857438,-3.4167,114.85,79.95578947,95.89473684,53.26315789,4.839736842
kruisfontein,za,-44.69239617,26.20018302,-34.0034,24.7314,63.22105263,86.44736842,25.47368421,11.28210526
busselton,au,-34.76372407,94.07830205,-33.6501,115.3333,63.84631579,99.57894737,25.47368421,10.40921053
asau,tv,-6.720898485,177.5829582,,,,,,
atuona,pf,-7.648556453,-114.6743968,-9.8,-139.0334,79.20342105,100,54.21052632,12.85184211
cockburn town,bs,28.78231594,-70.59657802,24.0333,-74.5167,77.66263158,99.68421053,41.05263158,14.10289474
gujranwala,pk,32.18884311,74.08155305,32.1617,74.1883,55.86526316,85.73684211,3.473684211,4.638947368
tuktoyaktuk,ca,74.47775721,-133.4036465,69.4541,-133.0375,-0.342368421,99,39.26315789,12.78157895
grindavik,is,62.39575086,-23.86728231,63.8424,-22.4338,38.40473684,100,65.78947368,21.16
avarua,ck,-35.56578811,-167.2750383,-21.2078,-159.775,77.65815789,98.18421053,41.68421053,15.70657895
port hardy,ca,46.32613083,-135.3032755,50.6996,-127.4199,40.46763158,98.92105263,84.94736842,7.984210526
erdenet,mn,48.62189578,104.0444338,49.0333,104.0833,5.761578947,53.39473684,14.94736842,4.736842105
georgetown,sh,-14.76785556,-13.04635479,-7.9334,-14.4167,74.86131579,100,53.15789474,14.34078947
port alfred,za,-74.77343387,39.02149723,-33.5906,26.891,65.83473684,87.31578947,19.15789474,10.02947368
taolanaro,mg,-69.91303861,64.65237194,,,,,,
dikson,ru,81.53616398,87.07093417,73.5069,80.5464,1.489736842,100,26.63157895,17.76736842
iqaluit,ca,61.39756064,-75.62548441,63.7506,-68.5145,13.01210526,96.86842105,53.68421053,17.95789474
cockburn harbour,tc,22.7819594,-72.80641884,,,,,,
mataura,pf,-46.42179003,-149.2767911,,,,,,
karpogory,ru,64.42801541,44.26953333,64.0019,44.4451,29.87868421,87.76315789,83.78947368,5.260789474
albany,au,-54.08338982,107.5336457,-35.017,117.8917,62.89657895,75.39473684,20.73684211,6.717631579
yenagoa,ng,3.226734064,5.741457968,4.9247,6.2642,80.49921053,81.39473684,35.78947368,6.758684211
deori,in,21.5326479,82.51253888,21.45,82.6167,70.77921053,75.10526316,45.47368421,6.449210526
lyubech,ua,51.60947922,30.42112885,51.7026,30.6569,33.02026316,95,83.57894737,6.196578947
khonuu,ru,66.41753547,144.5438684,,,,,,
yellowknife,ca,88.93318298,-103.3783373,62.456,-114.3526,-12.81710526,100,37.57894737,10.65868421
bredasdorp,za,-50.72852004,17.51176027,-34.5322,20.0403,61.895,89.76315789,32.63157895,15.20052632
lata,sb,-5.901700373,168.9832025,,,,,,
leningradskiy,ru,89.32370738,175.2307928,69.3833,178.4167,18.09763158,96.28947368,62.21052632,14.17289474
esperance,au,-34.80180386,124.7776596,-33.8667,121.9,67.18842105,76.28947368,30.73684211,9.549736842
doha,kw,30.40751253,46.03229388,,,,,,
bathsheba,bb,19.30422728,-46.42268124,13.2167,-59.5167,81.64263158,99.15789474,57.78947368,14.42921053
henties bay,na,-21.40777032,10.5859034,,,,,,
upernavik,gl,73.01856694,-53.92742667,72.7868,-56.1549,12.92710526,100,15.78947368,10.005
lorengau,pg,4.914262214,144.7548186,-2.0226,147.2712,84.69315789,99.76315789,34.73684211,3.945526316
namatanai,pg,2.984459664,159.6212288,-3.6667,152.4333,84.03973684,98.73684211,59.89473684,3.450263158
karla,ee,58.8235113,21.3723271,,,,,,
hilo,us,15.2502087,-151.2166401,19.7297,-155.09,74.47868421,99.78947368,33.57894737,7.612105263
klaksvik,fo,79.27013605,-4.232619628,62.2266,-6.5891,41.29815789,99.89473684,58.94736842,22.73842105
dombarovskiy,ru,50.00468643,59.88236274,50.7587,59.5386,27.84684211,83.10526316,36.52631579,10.07973684
prainha,br,-0.654646505,-53.88332607,-1.8,-53.48,85.705,61.36842105,7.157894737,5.654473684
yulara,au,-20.64348608,129.7468194,-25.2407,130.9889,82.30315789,36.10526316,21.47368421,5.799736842
kamenka,ru,66.57559704,44.08555349,51.3223,42.7678,36.32210526,93.10526316,67.26315789,10.61236842
puerto ayora,ec,-5.844520602,-95.49779722,-0.7394,-90.3518,69.36631579,98.73684211,30.94736842,10.54973684
nanortalik,gl,53.94392108,-41.18144783,60.1432,-45.2372,31.19447368,92.15789474,42.21052632,37.50763158
hobart,au,-85.37837114,148.5975593,-42.8794,147.3294,65.09921053,73.44736842,14.84210526,4.278421053
harper,lr,0.20085675,-9.89387059,4.375,-7.717,78.48,100,66.10526316,6.550526316
svetlogorsk,ru,68.1445032,91.44044194,54.9399,20.1548,44.69868421,100,80.42105263,25.85868421
nishihara,jp,18.22975872,133.408943,26.1842,127.7558,72.21078947,99.92105263,73.57894737,19.42921053
santa isabel do rio negro,br,0.655876823,-64.37386052,-0.4139,-65.0192,85.09026316,71.18421053,15.05263158,4.558421053
cabra,ph,13.77070436,118.4237432,13.8883,120.0494,83.61184211,98.44736842,18.21052632,17.45736842
hithadhoo,mv,-10.54161568,73.93874319,-0.6,73.0833,79.90342105,100,77.15789474,12.64842105
sataua,ws,-8.942989497,-173.1684443,,,,,,
belmonte,br,-16.92475883,-31.14369842,-15.8631,-38.8828,76.875,86.10526316,51.89473684,6.034736842
fortuna,us,39.16565622,-132.9248301,40.5982,-124.1573,47.09105263,94.55263158,34.84210526,8.174473684
kamina,cd,-9.751393492,24.39125785,-8.7387,24.9906,71.63894737,91.36842105,45.89473684,3.833157895
mahebourg,mu,-32.6536865,65.21486261,-20.4081,57.7,76.38763158,85.57894737,58.52631579,8.138947368
burns lake,ca,55.09488499,-125.4963008,54.2331,-125.7534,27.37289474,91.55263158,48.63157895,5.661578947
sentyabrskiy,ru,31.04476366,160.0054982,,,,,,
garowe,so,7.538449235,48.85169571,,,,,,
verkhoyansk,ru,68.12727525,132.2742495,67.5447,133.385,-20.37526316,66.68421053,60.31578947,2.955263158
atar,mr,21.90239543,-13.75627227,20.5169,-13.0499,68.28,25.68421053,18.31578947,7.100789474
karakendzha,tj,39.40667876,71.57667231,,,,,,
mahon,es,39.40301619,6.170408863,,,,,,
jaclupan,ph,10.36256859,123.7885886,10.3,123.8167,81.59552632,97.42105263,72.52631579,8.937894737
butaritari,ki,20.99600371,158.8667283,3.0707,172.7902,82.39421053,100,51.78947368,6.356315789
lompoc,us,19.30585562,-133.7329277,34.6391,-120.458,55.58868421,94.84210526,31.78947368,5.472894737
chimbote,pe,-10.60355538,-81.52807686,-9.0853,-78.5784,63.37973684,86.26315789,35.78947368,5.278684211
evensk,ru,61.62291622,158.3984172,61.95,159.2333,25.82868421,99.76315789,68.73684211,19.80078947
ijaki,ki,-3.041827349,174.4823625,,,,,,
dembi dolo,et,8.732285791,34.29667909,8.5333,34.8,70.41842105,74.68421053,18.10526316,3.049736842
arys,kz,42.01321115,68.71582456,42.4252,68.795,34.42105263,59.18421053,7.473684211,5.446052632
la ronge,ca,57.92589365,-106.3902828,55.1001,-105.2843,11.74894737,86.34210526,51.15789474,9.622368421
wajima,jp,39.56277621,135.8593765,37.4,136.9,48.51526316,98.26315789,74.73684211,13.48394737
beni suef,eg,28.68581063,32.00970939,,,,,,
kindu,cd,-2.206742321,25.68516821,-2.95,25.95,74.88736842,87.94736842,62.52631579,2.318157895
east london,za,-64.54735662,46.48888258,-33.0153,27.9116,68.28210526,96.26315789,24.63157895,14.14368421
isangel,vu,-18.24670239,170.067288,-19.55,169.2667,74.71026316,100,62,12.77815789
pevek,ru,85.03020337,164.146981,69.7008,170.3133,13.51078947,92.76315789,62.63157895,12.43368421
anadyr,ru,65.73931292,177.6326663,64.75,177.4833,20.47315789,91.86842105,54.31578947,18.135
stanger,za,-29.26079487,31.21506153,-29.3282,31.2895,71.86552632,66.21052632,7.684210526,6.623421053
maun,bw,-19.26702013,23.66575274,-19.9834,23.4167,76.96578947,34.44736842,30,7.523947368
mar del plata,ar,-43.44434926,-48.55522059,-38.0023,-57.5576,54.72421053,76.42105263,35.36842105,17.61421053
saint-philippe,re,-55.87126528,71.8855495,-21.3586,55.7679,76.66473684,100,49.68421053,11.09736842
ketchikan,us,57.66164705,-131.3430965,55.3422,-131.6462,37.97236842,99.76315789,79.26315789,11.89473684
hofn,is,66.09927886,-11.22430491,64.2539,-15.2082,33.76526316,100,20,14.77105263
beloha,mg,-36.27712056,41.65833331,-25.1667,45.05,74.00736842,71.23684211,23.47368421,11.65078947
batemans bay,au,-37.22656372,150.8255658,-35.7167,150.1833,62.24894737,92.47368421,62.63157895,5.911052632
sao filipe,cv,10.47921609,-33.12366596,14.8961,-24.4956,78.64342105,94.84210526,13.89473684,10.74131579
aklavik,ca,78.84371703,-140.6500069,68.2191,-135.0108,-13.76078947,60.5,41.68421053,7.264473684
hasaki,jp,28.76416727,155.5355664,35.7333,140.8333,57.19026316,100,37.68421053,16.84842105
port-gentil,ga,-0.948026255,2.98239116,-0.7194,8.7815,78.63763158,99.21052632,63.57894737,5.455263158
matamoros,mx,24.54433802,-95.9099593,25.5333,-103.25,61.22842105,55.73684211,0.210526316,6.565
bethel,us,57.07760192,-166.9151587,41.3712,-73.4141,40.11947368,82.15789474,21.26315789,8.884210526
carutapera,br,7.09355274,-41.29797607,-1.195,-46.0201,82.29131579,74.94736842,25.89473684,10.98526316
nouadhibou,mr,19.63583078,-18.98622509,20.931,-17.0347,71.42973684,66.63157895,12.73684211,8.025789474
goianapolis,br,-16.43841323,-49.09656728,-16.5106,-49.0239,72.44473684,87.76315789,63.57894737,4.648947368
khatanga,ru,84.76068244,100.8165341,71.9667,102.5,-8.679210526,58.57894737,41.05263158,11.35973684
yarega,ru,63.31385868,53.45876757,63.4354,53.5765,28.15236842,89.60526316,75.05263158,5.663421053
cabo san lucas,mx,14.56590938,-112.736881,22.8909,-109.9124,79.50473684,98.42105263,0,5.254736842
illoqqortoormiut,gl,72.17693454,-22.43530477,,,,,,
ribeira grande,pt,35.02489737,-36.89945515,38.5167,-28.7001,66.44473684,99.55263158,60,15.92078947
bandarbeyla,so,7.307624155,55.01973897,9.4942,50.8122,81.05315789,99.97368421,55.15789474,18.36210526
kidal,ml,19.42252784,3.484778253,18.4411,1.4078,71.74368421,34.07894737,47.57894737,4.813157895
lagoa,pt,47.77971888,-26.81888284,39.05,-27.9834,66.29105263,99.73684211,60,15.17131579
carnarvon,au,-25.69691887,109.1354907,-24.8667,113.6333,72.64473684,90.34210526,9.473684211,16.14210526
amderma,ru,85.9238023,60.73136261,,,,,,
noumea,nc,-26.55576424,163.5255852,-22.2764,166.4572,70.05973684,89.71052632,62.84210526,9.940526316
san carlos de bariloche,ar,-42.47643772,-68.97854175,-41.1456,-71.3083,40.08973684,58.97368421,10.21052632,3.948421053
baltar,pt,41.21062277,-8.371988984,41.1851,-8.3735,45.30947368,76.60526316,8.842105263,2.290789474
chuy,uy,-65.4279027,-21.77631583,-33.6971,-53.4617,61.03184211,78.10526316,15.57894737,12.32236842
port elizabeth,za,-86.23776142,38.93214564,-33.918,25.5701,65.40684211,97.5,22.42105263,15.76842105
new norfolk,au,-54.65934112,142.2041938,-42.7827,147.0587,63.33105263,73.65789474,16.73684211,4.589473684
vardo,no,81.56928243,33.27329884,70.3705,31.1107,35.25815789,100,65.78947368,11.19131579
pokhara,np,30.54544793,84.78012985,28.2333,83.9833,51.11868421,69.5,0,1.886052632
sao miguel do iguacu,br,-25.08588743,-54.44797943,-25.3481,-54.2378,70.68789474,75.68421053,28.31578947,5.445789474
barrow,us,85.32361233,-164.3448815,71.2906,-156.7888,9.684473684,99.84210526,43.26315789,16.29157895
bom jesus,br,-8.877502304,-44.54082962,-9.0745,-44.3587,82.98105263,60.42105263,28.21052632,5.446578947
rio grande,br,-36.22371796,-47.73327305,-32.035,-52.0987,66.07157895,78.86842105,20,11.15710526
victoria,sc,-9.625958987,65.64792186,-4.6167,55.45,80.89315789,100,65.47368421,12.02105263
carlos chagas,br,-17.59477784,-40.78189403,-17.7031,-40.7664,79.26947368,69.18421053,24.52631579,7.489736842
arraial do cabo,br,-43.81384248,-25.70587703,-22.9662,-42.0278,76.685,86.78947368,58,12.43657895
kaitangata,nz,-49.30557171,171.886026,,,,,,
tura,ru,66.99216948,98.16918852,64.2833,100.25,-19.82342105,70.5,58,2.615
angoche,mz,-16.45364015,39.42539233,,,,,,
porto novo,cv,15.28988099,-32.73891911,17.0197,-25.0648,76.83210526,97.73684211,6.105263158,10.28736842
constitucion,mx,13.58066758,-127.8750755,,,,,,
chilca,pe,-12.62314025,-77.37072456,-12.5212,-76.7373,63.40868421,90.15789474,25.57894737,6.464210526
mozarlandia,br,-14.99803901,-50.98975459,-14.7448,-50.5706,78.07578947,82.26315789,51.78947368,5.019210526
killybegs,ie,56.41361286,-10.22243624,54.6333,-8.45,48.17973684,99.21052632,83.78947368,10.25947368
severomorsk,ru,68.84026633,33.78091242,69.0689,33.4162,18.10236842,91.36842105,53.26315789,3.747894737
zhigansk,ru,69.45660507,125.1550425,66.7697,123.3711,-14.54631579,71.86842105,47.89473684,5.419473684
puerto colombia,co,13.34916583,-76.58188466,10.9878,-74.9548,78.44157895,94.92105263,75.26315789,7.942105263
hualmay,pe,-14.74254064,-84.93262417,-11.0964,-77.6139,64.39473684,76.63157895,27.57894737,4.613421053
haines junction,ca,60.80704619,-140.8451412,60.7522,-137.5109,-6.721578947,93.97368421,64.31578947,2.367631579
ouesso,cg,0.761709621,15.68003544,1.6136,16.0517,74.88236842,92.60526316,62.84210526,2.567894737
torbay,ca,49.2911258,-46.75278316,47.6666,-52.7314,39.91605263,96,56.94736842,15.47684211
mwinilunga,zm,-12.08270611,23.22740626,-11.7359,24.4293,69.12026316,82.28947368,52.10526316,3.283157895
tsihombe,mg,-44.38180884,47.63487606,,,,,,
mancio lima,br,-7.223654048,-73.10720782,-7.6142,-72.8959,79.62,88.44736842,43.36842105,3.462368421
port blair,in,8.408294657,89.10122114,11.6667,92.75,82.85894737,99.92105263,39.47368421,6.308684211
qaqortoq,gl,62.9898255,-45.52172632,60.7167,-46.0334,31.28578947,90.10526316,59.57894737,13.61763158
matara,lk,-1.477195064,82.78252694,5.9485,80.5353,79.62026316,96.63157895,45.36842105,4.775789474
jasper,ca,52.09872384,-118.876367,52.8833,-118.0857,20.27447368,69.02631579,52.73684211,3.112631579
labuhan,id,-7.271104636,104.6016288,-6.8844,112.2051,81.49473684,100,39.26315789,6.079473684
coquimbo,cl,-26.43624454,-85.47550069,-29.9534,-71.3437,59.19842105,93.31578947,7.894736842,4.578421053
saskylakh,ru,72.97989064,117.7833636,71.9167,114.0833,4.850263158,77.47368421,70.63157895,12.12736842
cap malheureux,mu,-18.83227524,58.04906887,-19.9842,57.6142,77.15184211,99.73684211,40.21052632,12.77236842
mayo,ca,64.92123584,-136.1027943,63.5927,-135.8999,-17.52078947,63.60526316,50.52631579,2.826578947
mutoko,zw,-17.91625445,32.64618571,-17.397,32.2268,67.49657895,72.13157895,37.57894737,5.175789474
lazaro cardenas,mx,7.362572743,-107.5816754,17.9583,-102.2,78.70421053,94.34210526,45.15789474,3.836578947
vestmannaeyjar,is,60.71625197,-20.19241008,63.4427,-20.2734,32.98289474,99.97368421,54,14.60368421
mount gambier,au,-54.01536232,128.7054062,-37.8334,140.7667,73.47184211,61.5,20,5.13
severo-kurilsk,ru,35.36558735,164.004549,50.6789,156.125,34.61921053,98.71052632,52.94736842,14.95921053
chengde,cn,42.08659572,116.9211053,40.9725,117.9361,20.47552632,41.73684211,2.526315789,6.395
krasnoarmeyskiy,ru,47.07340971,42.30381252,47.0114,42.2072,44.29052632,89.23684211,45.78947368,11.445
ouadda,cf,8.412655497,22.35962272,8.0777,22.4007,77.09605263,75.42105263,22.21052632,5.354736842
catuday,ph,18.29103136,116.101581,16.2923,119.8062,82.53105263,96,14.73684211,5.269736842
ponta do sol,cv,23.23971865,-25.36071996,17.1994,-25.092,76.71447368,100,0.210526316,13.24289474
palmer,us,57.2761347,-146.8042475,42.1584,-72.3287,37.43210526,64.5,24.84210526,7.963947368
khash,ir,27.29992439,62.09167852,28.2211,61.2158,39.20921053,40.15789474,4.315789474,3.503947368
geraldton,au,-31.30692526,105.6215296,-28.7667,114.6,68.87473684,89.84210526,27.05263158,14.24105263
raga,sd,7.192869444,24.50295534,,,,,,
naze,jp,28.61404681,130.2066638,28.3667,129.4833,68.12026316,100,76.21052632,19.00368421
vaitupu,wf,-10.34562801,-178.5711734,,,,,,
kenai,us,61.22554893,-152.3651663,60.5544,-151.2584,19.57868421,77.31578947,32.84210526,13.64657895
cairns,au,-15.00247146,149.0037742,-16.9167,145.7667,75.90078947,97.84210526,57.26315789,10.53236842
broome,au,-20.39325655,121.6364538,-17.9667,122.2333,85.60184211,77.36842105,21.57894737,7.021578947
north battleford,ca,53.15676295,-108.7809415,52.7834,-108.2847,2.508684211,75.13157895,24.94736842,8.238947368
narsaq,gl,86.72712838,-60.64506776,60.9167,-46.05,20.64684211,77.28947368,60.21052632,8.833684211
dunedin,nz,-60.23612266,179.4732189,-45.8742,170.5036,50.67078947,86.63157895,27.78947368,3.835526316
terrace,ca,55.60191702,-128.4447258,54.5163,-128.6035,26.37605263,85.94736842,79.47368421,1.746315789
zhongxing,cn,33.16764388,118.6817216,33.7039,118.6792,40.10368421,68.60526316,58.52631579,7.548421053
jiddah,sa,22.46480565,39.58131062,,,,,,
mpongwe,zm,-13.79967604,27.69786365,-13.5092,28.155,70.39605263,75.39473684,34.31578947,8.262894737
estelle,us,28.19846503,-89.13975241,29.8458,-90.1068,63.45421053,78.73684211,39.78947368,11.25342105
belushya guba,ru,72.67763177,50.84012289,,,,,,
ibra,om,19.23611797,58.17539218,22.6906,58.5334,61.04026316,69.44736842,15.15789474,2.687894737
kanallakion,gr,39.28020638,20.6284759,,,,,,
pinyug,ru,60.15458685,47.80373619,60.251,47.7842,31.77052632,84.86842105,78.10526316,7.22
tomatlan,mx,15.00034029,-111.4934943,19.9333,-105.25,75.65368421,79.78947368,14.42105263,2.985263158
benghazi,ly,32.12308987,19.48568826,32.1167,20.0667,67.41368421,100,60.31578947,17.30578947
xichang,cn,28.68106175,102.9575208,27.8964,102.2634,45.97157895,68.73684211,10.84210526,1.360526316
fergus falls,us,47.16627176,-95.85494896,46.283,-96.0776,27.07236842,77.94736842,29.47368421,11.97210526
ilulissat,gl,80.52990057,-43.36850178,69.2167,-51.1,-2.227105263,100,13.26315789,5.146578947
kendari,id,-3.531255041,121.864482,-3.945,122.4989,79.22105263,88.73684211,49.68421053,3.193684211
ostrovnoy,ru,67.23186387,38.68813952,68.0531,39.5131,20.65605263,87.97368421,72.84210526,10.05026316
machiques,ve,9.899623623,-72.63135811,10.0644,-72.545,71.51078947,90.21052632,61.68421053,2.653421053
provideniya,ru,43.41859405,-174.5330603,64.3833,-173.3001,28.62263158,99.92105263,50.42105263,19.66947368
utrecht,za,-27.4055506,30.24635583,-27.6587,30.3217,62.32736842,55.84210526,16.63157895,4.109473684
zurrieq,mt,34.35104462,14.3811305,35.8311,14.4742,64.20736842,98.97368421,38.10526316,18.035
san bartolome,es,29.06452202,-13.68820329,27.9248,-15.5733,68.56947368,98.34210526,12.10526316,9.793947368
pomabamba,pe,-8.514026044,-77.05905567,-8.8334,-77.4667,46.87552632,83.18421053,58,2.202368421
rawannawi,ki,3.341781905,177.4272213,,,,,,
butembo,cd,0.174006019,27.64154434,0.15,29.2833,66.23684211,89.31578947,28.52631579,1.613157895
high level,ca,58.9124359,-115.7276692,58.5169,-117.1361,0.683947368,67.60526316,56.10526316,4.263684211
bokspits,bw,-25.69904611,20.80338663,,,,,,
lithgow,au,-33.11897406,150.2186625,-33.4834,150.15,57.42657895,91.02631579,70.84210526,3.186315789
port moresby,pg,-10.10666932,145.2950891,-9.4432,147.1797,80.98263158,98.13157895,39.05263158,17.04263158
flinders,au,-30.57274789,135.5223713,-34.5834,150.8552,63.08368421,88.26315789,67.78947368,5.181052632
osmena,ph,9.396719312,120.2185806,10.5208,119.9258,83.80473684,99.73684211,44.31578947,15.65710526
san quintin,mx,28.3378658,-121.5167844,30.4833,-115.95,56.46631579,75.97368421,16.52631579,4.560263158
quatre cocos,mu,-15.60193622,71.3710453,-20.2078,57.7625,76.38763158,85.57894737,58.52631579,8.138947368
saldanha,za,-43.97543139,-3.678131121,-33.0117,17.9442,61.52815789,81.10526316,35.36842105,9.654473684
hermanus,za,-66.06289329,7.446242657,-34.4188,19.2345,59.66473684,73.28947368,34.52631579,5.148421053
samarai,pg,-13.10765762,154.7188966,-10.6167,150.6667,79.33763158,100,75.15789474,8.855
ballina,ie,55.99463721,-10.64873258,54.1167,-9.1667,45.91605263,98.94736842,81.15789474,7.538421053
kotri,pk,25.36667015,68.29499832,25.366,68.3122,64.10815789,66.23684211,0,9.275263158
woodward,us,36.91490685,-99.29437982,36.4337,-99.3904,52.81368421,45.68421053,20.73684211,17.54947368
alofi,nu,-17.46906879,-166.924539,-19.0596,-169.9187,80.54815789,95.76315789,56.73684211,9.309473684
rawson,ar,-47.53586447,-61.28115607,-43.3002,-65.1023,53.84789474,78.84210526,42.63157895,22.68289474
longyearbyen,sj,80.63812353,18.49769594,78.2186,15.6401,19.99552632,99.94736842,49.68421053,8.386578947
envira,br,-7.709409805,-69.65899348,-7.3,-70.2167,81.20473684,82.60526316,42.73684211,2.626052632
saint-joseph,re,-26.45419288,54.73543312,-21.3667,55.6167,76.66473684,100,49.68421053,11.09736842
meyungs,pw,15.28702886,132.9815734,,,,,,
nizhneyansk,ru,81.09253837,138.187539,,,,,,
barentsburg,sj,86.9470842,-5.272909761,,,,,,
qaanaaq,gl,82.87000041,-95.28135774,77.484,-69.3633,-3.593421053,100,7.473684211,13.89736842
wielun,pl,51.11600207,18.56808648,51.221,18.5696,35.49763158,95.71052632,77.68421053,10.75894737
curumani,co,9.135606861,-73.29439472,9.1999,-73.5428,77.35789474,93.13157895,58.84210526,2.435263158
hamilton,bm,31.99195378,-70.60526227,32.2915,-64.778,72.26736842,99.60526316,39.78947368,18.70026316
thompson,ca,64.27065124,-98.14864263,55.7435,-97.8558,5.003421053,74.42105263,50.10526316,6.356052632
san ramon,bo,-13.93373084,-63.79929455,-13.2834,-64.7167,76.21078947,95.89473684,59.15789474,6.176578947
saskatoon,ca,51.90564715,-106.462988,52.1168,-106.6346,7.484473684,76.13157895,25.05263158,8.683947368
killarney,ca,48.55978884,-99.5207578,49.1833,-99.6637,15.73210526,81.81578947,16.21052632,11.23236842
north platte,us,40.55749193,-101.2885862,41.1239,-100.7655,40.58394737,50.76315789,21.05263158,11.17657895
pacific grove,us,30.51600086,-129.184935,36.6177,-121.9167,51.62263158,94.71052632,41.05263158,4.872631579
tabukiniberu,ki,-1.576453841,175.7789422,,,,,,
port augusta,au,-31.86497271,138.3676012,-32.5,137.7667,75.00447368,45.34210526,28,8.418684211
castro,cl,-52.83114026,-110.0022246,-42.4721,-73.7732,47.92842105,87.13157895,73.36842105,6.844473684
aswan,eg,22.80781427,33.13921603,24.0934,32.907,72.94526316,56.55263158,8.631578947,5.928947368
puro,ph,18.46769338,118.0953569,12.4841,123.3827,81.95894737,98.02631579,58.84210526,13.04605263
setermoen,no,68.60128684,18.72211684,68.861,18.3486,7.891578947,91.5,40.21052632,2.362894737
lavrentiya,ru,72.5913484,-172.9477382,65.5833,-171,26.48894737,99.92105263,44.84210526,18.21184211
bambous virieux,mu,-26.34618608,65.46885515,-20.3428,57.7575,76.38763158,85.57894737,58.52631579,8.138947368
biak,id,-2.037883458,136.0000894,,,,,,
takoradi,gh,-4.366119852,-0.171021397,4.8845,-1.7554,80.08631579,98.71052632,52,7.079473684
faanui,pf,-13.80086992,-155.7678221,-16.4834,-151.75,80.28315789,99.73684211,54.52631579,18.23578947
nanyang,cn,32.81005703,112.8970914,32.9947,112.5328,39.28763158,61.81578947,71.78947368,7.692105263
clyde river,ca,68.91756986,-80.90126279,70.4692,-68.5915,-18.47868421,97.36842105,11.78947368,4.603947368
padang,id,-10.23815708,86.81312983,-0.9493,100.3543,79.91763158,100,58.10526316,4.354210526
ola,ru,56.42712359,152.2278256,59.5833,151.2833,28.67605263,99.86842105,64.21052632,17.02184211
grand river south east,mu,-20.03001475,72.08204786,,,,,,
miranda,br,-19.93326152,-55.92270214,-20.2406,-56.3784,75.91921053,88.23684211,48.10526316,4.64
balykshi,kz,47.09397847,51.75307151,,,,,,
comodoro rivadavia,ar,-49.48057479,-63.82539922,-45.8667,-67.5,50.76684211,88.44736842,41.89473684,19.77973684
cherskiy,ru,72.15761575,162.381213,68.75,161.3,8.351842105,74.34210526,62.84210526,6.473947368
cacule,br,-14.54983142,-42.26026701,-14.5034,-42.2223,77.47605263,67.26315789,22.52631579,8.954736842
lulindi,tz,-10.62445064,39.11491126,-10.8167,39.1333,83.24842105,57.63157895,21.78947368,7.523947368
paralimni,cy,34.69675741,34.00991213,35.0375,33.9833,69.78342105,98.92105263,30.31578947,15.21184211
komsomolskiy,ru,73.69420743,172.5546023,43.9783,46.6985,48.41789474,94.73684211,48.31578947,8.442105263
ruatoria,nz,-32.2073211,179.6975401,,,,,,
jumla,np,33.85550251,84.3071831,29.2747,82.1838,27.31289474,89,20.84210526,1.593157895
tasiilaq,gl,74.17651915,-33.71495696,65.6145,-37.6368,22.34473684,100,30.73684211,16.68394737
kincardine,ca,44.28328063,-82.12510094,44.1834,-81.6331,40.57578947,100,53.26315789,22.28210526
kutum,sd,17.37086258,24.1756068,14.2,24.6667,75.01105263,30.89473684,6.105263158,6.961842105
dzilam gonzalez,mx,23.55224582,-88.98074624,21.2833,-88.9334,72.52315789,79.34210526,25.68421053,3.409473684
pirovskoye,ru,57.09327612,92.54965874,57.6267,92.2658,19.91105263,81.02631579,72.73684211,7.445
dingle,ie,48.5506364,-14.23621869,52.1408,-10.2689,52.71842105,97.57894737,88.10526316,12.84947368
nhulunbuy,au,-11.6255235,137.5500673,-12.2334,136.7667,84.68184211,99.89473684,41.47368421,12.17394737
pietersburg,za,-23.89464092,29.46967543,,,,,,
swan hill,au,-36.15285362,143.188381,-35.3379,143.5544,74.03921053,51.10526316,17.89473684,8.730789474
yanam,in,15.28197366,83.95445799,16.7333,82.2167,80.16605263,88.65789474,46.21052632,6.350526316
tual,id,-6.529383689,131.9736166,-5.6667,132.75,83.61394737,100,36.31578947,2.911842105
manakara,mg,-22.80836249,49.17916391,-22.1334,48.0167,73.65894737,98.47368421,84.31578947,9.667368421
swan river,ca,52.59715901,-101.3012955,52.1058,-101.2676,12.78578947,78.92105263,36.63157895,6.499736842
hovd,mn,42.37026104,101.3564578,48.0056,91.6419,8.358947368,69.92105263,25.05263158,3.832894737
touba,ci,8.280734634,-7.573674304,8.2833,-7.6834,76.77210526,77.94736842,41.26315789,4.371578947
thomaston,us,32.87890232,-84.30435661,32.8882,-84.3266,48.03894737,66.92105263,20.21052632,6.305526316
hua hin,th,12.54295097,99.97516012,12.5707,99.9588,81.125,99.63157895,44.31578947,9.813684211
vila velha,br,-26.14590463,-24.51367385,-20.3298,-40.2925,77.31131579,88.97368421,27.15789474,17.57342105
rtishchevo,ru,52.18841803,43.93341845,52.2604,43.7874,36.725,94.34210526,81.89473684,11.02736842
guider,cm,9.93527345,13.89368214,9.9342,13.9486,79.87368421,34.65789474,18.10526316,6.926842105
richards bay,za,-28.79457658,35.88585868,-28.7831,32.0377,75.54736842,65.86842105,6.526315789,8.748947368
cartagena,co,12.28295329,-77.08765541,10.3997,-75.5145,80.03263158,99.57894737,80.73684211,15.46552632
niono,ml,14.12292626,-6.220612889,14.2526,-5.993,73.95842105,33.23684211,28.94736842,6.988684211
mezen,ru,67.42111555,44.80176638,65.8522,44.24,24.355,86.89473684,79.15789474,5.116842105
bergen,no,60.45107706,5.310494365,60.392,5.328,35.30736842,99.65789474,44,7.288684211
umm lajj,sa,25.44009388,40.27231084,25.0213,37.2685,78.17131579,83.81578947,28,5.427894737
craig,us,41.06578726,-107.610839,40.5153,-107.5465,25.68736842,70.28947368,39.78947368,5.464473684
warqla,dz,31.06376182,6.479510368,,,,,,
marawi,sd,17.88335771,30.77894676,18.4833,31.8167,80.445,37.76315789,0,8.106315789
clarence town,bs,22.49943454,-75.29475704,23.1,-74.9834,78.04710526,100,38,15.1
santiago del estero,ar,-27.06783883,-63.81362256,-27.7952,-64.2615,75.12236842,40.07894737,21.26315789,11.21473684
saint-augustin,ca,54.91958652,-59.35927931,51.226,-58.6502,35.45210526,99.55263158,65.26315789,19.35684211
gigmoto,ph,17.82379184,130.3838553,13.7796,124.39,81.27842105,99.73684211,78.73684211,9.6
gimli,ca,51.47990952,-96.64636931,50.6336,-96.9907,19.39657895,94.13157895,26.73684211,11.79473684
norman wells,ca,60.60808546,-127.385416,65.282,-126.833,-16.61315789,72.89473684,44.10526316,4.621578947
tayoltita,mx,24.31007629,-106.2773128,24.0833,-105.9334,72.26026316,51.5,0,1.947894737
pano polemidia,cy,34.80328126,33.07169608,,,,,,
tateyama,jp,29.84414684,141.8029234,34.9833,139.8667,58.10921053,100,46.31578947,18.62026316
korla,cn,38.32420658,88.76188987,41.7597,86.1469,22.54736842,80.18421053,17.26315789,3.674736842
balabac,ph,9.322533872,114.213105,7.9868,117.0645,81.20394737,100,61.57894737,7.577105263
yulin,cn,23.04010972,110.1020196,22.6333,110.15,57.78105263,90.68421053,79.47368421,6.712105263
trojes,hn,14.15703327,-85.88142387,,,,,,
touros,br,1.510155063,-27.7177998,-5.1989,-35.4609,80.30289474,79.57894737,47.26315789,13.09052632
ust-kamchatsk,ru,56.47452318,164.3104231,,,,,,
cayenne,gf,12.00506376,-43.69518788,4.9333,-52.3334,81.85421053,80.52631579,44,7.977631579
birjand,ir,32.38551524,60.29670471,32.8663,59.2211,31.97447368,33.26315789,6.315789474,3.365526316
olafsvik,is,63.05542525,-25.32097798,,,,,,
kashary,ru,48.88396211,41.22925953,49.04,41.0056,37.98815789,91.52631579,64.31578947,9.785
codrington,ag,23.99060045,-47.17856715,,,,,,
sisimiut,gl,67.62158623,-55.33617455,66.9395,-53.6735,-2.485789474,100,9.263157895,4.716315789
naron,es,46.23652131,-8.566445699,43.5167,-8.1528,58.29736842,98.73684211,11.05263158,10.83842105
kiunga,pg,-4.861989123,138.836943,-6.122,141.2906,78.65421053,90.34210526,67.26315789,2.373947368
zlitan,ly,32.30427873,14.38106093,32.4674,14.5687,60.03263158,85.57894737,11.36842105,12.15105263
xixiang,cn,35.65052852,112.2766795,35.1628,112.865,30.85710526,54.86842105,53.47368421,5.170263158
san cristobal,ec,-13.27484149,-90.94056323,-0.9045,-89.6175,69.245,100,51.26315789,10.85342105
huilong,cn,32.92883591,124.1032748,31.8111,121.655,51.25526316,98.94736842,64.94736842,13.82052632
bongandanga,cd,1.465314908,21.31580981,1.5,21.05,74.26894737,91.81578947,54.31578947,2.802368421
berlevag,no,89.11716982,33.8968961,70.8578,29.0864,23.71447368,100,55.89473684,5.914736842
chitungwiza,zw,-18.27831306,31.21596943,-18.0128,31.0756,63.87894737,78.15789474,39.26315789,5.313947368
salalah,om,14.05980415,55.81211111,17.0151,54.0924,78.19736842,96.28947368,14.63157895,11.06473684
mindelo,cv,16.09528399,-26.50325672,16.8901,-24.9805,76.84473684,97.73684211,6.105263158,10.28736842
gazojak,tm,42.54751836,63.03193838,41.1875,61.4036,40.68184211,81.81578947,7.894736842,9.090263158
neepawa,ca,50.88958567,-98.41029165,50.2289,-99.4665,13.14394737,76.05263158,12,9.717105263
srandakan,id,-8.606101345,109.7097379,-7.9387,110.2506,73.41578947,99.36842105,85.68421053,3.677105263
skalistyy,ru,73.76582276,34.37630293,,,,,,
tiksi,ru,83.42347166,127.7253621,71.6872,128.8694,5.885,81.73684211,70.31578947,9.826315789
chisec,gt,15.98658169,-89.96479498,15.8167,-90.2834,63.74473684,96.57894737,56.31578947,2.016842105
lusambo,cd,-5.170051056,23.77969551,-4.9667,23.45,75.625,85.94736842,58.84210526,2.402894737
manbij,sy,36.04591158,38.85243259,36.5281,37.9549,54.83578947,71.86842105,44.10526316,8.566315789
san pedro,ar,-25.59349028,-63.41882926,-24.2313,-64.8662,67.80894737,64.71052632,26.63157895,3.647631579
marystown,ca,38.8612177,-52.45256885,47.1666,-55.1483,41.28868421,96.57894737,59.47368421,18.28210526
dryden,ca,50.0831887,-93.27353914,49.7833,-92.7504,23.62131579,79.76315789,52.21052632,8.094473684
saint george,bm,36.58297792,-57.00562048,32.3817,-64.6781,72.26736842,99.60526316,39.78947368,18.70026316
ixtapa,mx,16.65718362,-102.4085786,20.7,-105.2,72.675,77.63157895,11.78947368,2.317105263
koumac,nc,-23.38439506,160.741522,-20.5667,164.2833,73.67815789,80.68421053,65.68421053,6.073157895
birobidzhan,ru,48.59327497,133.1248954,48.8,132.95,-0.061842105,57.81578947,18.42105263,5.737631579
priupskiy,ru,53.80819595,37.75695043,53.9096,37.736,31.20526316,94.31578947,79.47368421,8.757631579
hihifo,to,-16.27191908,-175.2051789,,,,,,
verkhnyaya inta,ru,66.09342017,61.86220527,65.9811,60.3094,18.25263158,78.39473684,74.42105263,4.637631579
pangnirtung,ca,61.55820067,-59.6991788,66.1451,-65.7126,2.797368421,89.39473684,34.84210526,7.474210526
svetlyy,ru,50.64229011,62.73775677,54.675,20.1347,40.28894737,89.65789474,82,16.84894737
prince rupert,ca,52.14734894,-130.2864738,54.3161,-130.3202,34.92736842,98.65789474,82.73684211,5.821052632
grand gaube,mu,-16.91493293,59.92017474,-20.0064,57.6608,77.15184211,99.73684211,40.21052632,12.77236842
orhangazi,tr,40.47791557,29.25826578,40.4892,29.3089,46.96368421,85.71052632,46.31578947,3.946052632
mehran,ir,32.29656417,46.20881802,33.1222,46.1646,60.60342105,75.02631579,38.63157895,7.659210526
kelowna,ca,49.67925391,-119.4105377,49.8831,-119.4857,29.77631579,83.84210526,55.47368421,3.612894737
trincomalee,lk,9.530016771,83.64025314,8.5711,81.2335,79.08789474,91.05263158,47.36842105,4.134736842
dixon,us,41.80227059,-89.34043323,38.4455,-121.8234,48.26236842,81.86842105,36.31578947,6.745526316
talnakh,ru,79.42324039,91.50815287,69.4865,88.3972,-28.89736842,62.65789474,30.52631579,2.607894737
namibe,ao,-18.8966446,7.523420206,-15.1962,12.1522,71.98,99.92105263,11.89473684,5.119473684
fairbanks,us,67.31857864,-146.7032499,64.8378,-147.7164,-10.98631579,66.73684211,36.94736842,4.250789474
chabahar,ir,25.9136063,59.59332991,,,,,,
grajau,br,-5.463446779,-46.19305337,-5.8195,-46.1387,81.77578947,64.71052632,25.78947368,6.252368421
bageshwar,in,30.10530244,80.14368234,29.85,79.7667,40.95894737,69.63157895,17.78947368,2.085526316
verkhnyaya toyma,ru,62.96926298,45.45714533,62.2349,44.9985,30.85526316,89.65789474,82.84210526,7.032631579
acarau,br,7.10640024,-39.7027089,-2.8856,-40.12,81.94815789,69.81578947,43.15789474,14.88578947
iwaki,jp,36.31774471,143.2875221,37.05,140.8833,44.90368421,95.34210526,31.57894737,8.470789474
phan thiet,vn,11.06580743,108.2841237,10.9333,108.1,79.20421053,97.23684211,53.26315789,8.742894737
nanchong,cn,30.65183313,106.4038573,30.7951,106.0847,52.53289474,96,88.52631579,5.243157895
tuatapere,nz,-46.74382166,158.7473232,-46.1334,167.6833,50.89315789,96.84210526,19.15789474,5.116578947
kahului,us,25.08064132,-154.5776099,20.8947,-156.4701,70.44973684,91.36842105,33.47368421,5.755526316
iquique,cl,-20.68677314,-69.19566916,-20.2209,-70.1431,62.27236842,96.10526316,16.52631579,4.145789474
tumannyy,ru,84.68611362,39.54941251,,,,,,
vostok,ru,51.41976411,150.8390936,46.4856,135.8833,-0.476052632,63.68421053,43.05263158,4.506842105
hokitika,nz,-41.10379399,168.2321852,-42.7167,170.9667,58.05894737,94.65789474,11.78947368,4.736842105
kavieng,pg,3.334890214,154.8272212,-2.5745,150.7967,85.58894737,100,34.52631579,4.383421053
kayerkan,ru,70.50960559,87.84671005,,,,,,
gourdon,gb,56.642002,-1.89498475,,,,,,
kuala selangor,my,3.188135129,101.2899679,3.35,101.25,78.04421053,95.44736842,61.78947368,3.659736842
sibenik,hr,43.73771714,15.66628135,43.7272,15.9058,35.46131579,69.34210526,24.21052632,3.586052632
masterton,nz,-41.41909674,176.844591,-40.9598,175.6575,53.11684211,76.13157895,35.47368421,8.09
merauke,id,-9.033775013,139.1189656,-8.4667,140.3333,81.88868421,91.18421053,49.05263158,9.744210526
ilhabela,br,-27.95941603,-43.18353669,-23.7781,-45.3581,71.26868421,99.44736842,78.10526316,9.554473684
guerrero negro,mx,25.23155583,-116.7500512,27.9769,-114.0612,63.95368421,81.78947368,11.68421053,7.509736842
banjar,id,-14.03585042,105.6615536,-8.19,114.9675,74.66842105,98.84210526,72.31578947,1.583684211
agadez,ne,18.12374542,9.911915607,19.75,10.25,72.46526316,31.92105263,31.57894737,5.024473684
tumkur,in,13.26149227,77.0701339,13.3422,77.1017,73.61789474,82.86842105,59.05263158,4.848421053
egvekinot,ru,66.38751179,-178.5943324,66.3167,-179.1667,10.50684211,78.18421053,57.26315789,4.622368421
burnie,au,-41.46561471,145.1234253,-41.0667,145.9167,60.99947368,93.05263158,54.52631579,15.61842105
cidreira,br,-33.95483327,-43.96103711,-30.1812,-50.2056,65.895,84.15789474,35.15789474,8.536578947
malm,no,64.04319298,11.08784432,64.0721,11.2172,22.54236842,99,53.89473684,4.286052632
xuddur,so,3.572930221,43.84314585,4.1213,43.8894,77.20605263,43.63157895,0,9.293421053
ife,ng,7.480715993,4.742436511,7.4667,4.5667,79.70368421,77.47368421,28.52631579,2.680263158
airai,pw,4.414288382,140.5036758,,,,,,
pitkyaranta,ru,61.40076021,32.12243649,61.5734,31.4792,32.56710526,93.71052632,81.57894737,9.731842105
hogyesz,hu,46.50933657,18.38869147,46.497,18.4184,36.60236842,91.42105263,57.57894737,8.077368421
waingapu,id,-12.48818026,117.7935927,-9.6567,120.2641,78.08815789,92.47368421,48.94736842,3.507631579
siilinjarvi,fi,63.49109181,27.80503386,63.0833,27.6667,32.71131579,97.36842105,81.26315789,7.349736842
vao,nc,-26.60385474,170.7335027,-22.6667,167.4833,71.65078947,100,56.10526316,13.61105263
grants pass,us,42.05769502,-124.2701546,42.439,-123.3284,38.43763158,85.34210526,40.10526316,3.132105263
mrirt,ma,31.16821855,-5.106924492,,,,,,
marcona,pe,-23.84701827,-83.56098841,,,,,,
wahran,dz,34.10523277,-0.139510449,,,,,,
bonavista,ca,51.89180825,-48.66151766,48.6499,-53.1148,39.185,96.60526316,56.21052632,17.05736842
samusu,ws,-12.74106029,-169.9168614,,,,,,
ambodifototra,mg,-17.57116275,51.64663851,,,,,,
jipijapa,ec,-1.482992118,-80.77129533,-1.3334,-80.5834,72.22368421,86.15789474,51.57894737,4.454210526
kargasok,ru,61.37351964,80.11145167,59.0556,80.8572,23.68736842,87.39473684,81.26315789,5.210263158
huaihua,cn,27.7167553,109.7392068,27.5494,109.9592,41.32868421,95.15789474,81.47368421,6.443421053
souillac,mu,-38.44847044,66.41018447,-20.5167,57.5167,76.38763158,85.57894737,58.52631579,8.138947368
kautokeino,no,69.35182066,23.95222558,69.0125,23.0412,12.75947368,83.84210526,64.84210526,3.959210526
spasskoye,ru,55.93249553,45.45471341,44.6108,132.7969,10.92131579,95.02631579,41.36842105,9.799210526
bloemfontein,za,-29.97965527,26.10325934,-29.1211,26.214,64.86605263,30.78947368,14.63157895,10.37868421
kaabong,ug,3.386644319,33.77234523,3.4836,34.1492,73.36631579,41.36842105,0.631578947,7.315263158
sarangani,ph,4.174372291,125.4070343,5.4033,125.4636,83.245,99.84210526,34.21052632,8.106842105
bida,ng,8.67357027,6.251668739,9.0833,6.0167,86.36605263,59.57894737,27.68421053,5.737894737
riyadh,sa,21.15555423,47.96258371,24.6877,46.7219,66.59210526,50.10526316,26.21052632,6.941578947
lichinga,mz,-12.46958837,35.85389554,-13.3128,35.2406,72.41736842,68.10526316,24.84210526,5.944736842
havoysund,no,71.31249396,24.2554351,70.9963,24.6622,16.76657895,100,17.68421053,3.734210526
moose factory,ca,51.3860866,-80.56168349,,,,,,
kifri,iq,34.7480965,44.37305035,34.6959,44.9661,59.77421053,62.60526316,46.63157895,6.387631579
gladstone,au,-23.18738187,151.6239016,-23.85,151.25,69.77736842,86.44736842,63.15789474,12.14289474
dubbo,au,-30.97051809,146.5155319,-32.25,148.6167,65.06710526,83.13157895,35.57894737,9.894210526
coromandel,br,-18.55766574,-47.04451678,-18.4734,-47.2003,71.80315789,86.55263158,66.94736842,6.029473684
paytug,uz,41.36071092,72.62554395,,,,,,
yazd,ir,32.10415399,54.52464707,31.8972,54.3675,42.66894737,51.73684211,12,2.670789474
kawalu,id,-8.887664556,108.2983132,-7.3817,108.2082,70.22578947,93.44736842,79.15789474,2.205789474
svarstad,no,61.62876473,11.23914379,59.399,9.9698,30.93078947,94.44736842,12.10526316,5.673684211
avera,pf,-28.56724389,-154.2803211,,,,,,
swellendam,za,-32.73818041,21.00372079,-34.0227,20.4417,64.40052632,60.5,18.73684211,6.775263158
kawasaki,jp,35.47443049,139.8180578,35.5206,139.7172,49.86447368,96.52631579,38.10526316,8.591578947
waukesha,us,43.01650675,-88.30789923,43.0117,-88.2315,34.86710526,83.84210526,42.84210526,15.08289474
businga,cd,2.936624158,20.80776917,3.3333,20.8833,73.99078947,90.71052632,49.68421053,2.830263158
bani walid,ly,30.13874702,14.22305293,31.7566,13.9942,54.35605263,68.92105263,9.052631579,8.969736842
angra,pt,38.13682845,-27.39152611,,,,,,
marrakesh,ma,31.18490963,-7.07187897,31.6315,-8.0083,53.97842105,57.02631579,2.526315789,3.182368421
bilibino,ru,65.3736252,166.6657427,68.0546,166.4372,4.925263158,74.15789474,67.05263158,4.641842105
okha,ru,55.63188026,142.0343587,53.5739,142.9478,9.472105263,99,29.89473684,17.23736842
barranca,pe,-3.740797787,-75.70669588,-10.75,-77.7667,62.65315789,97.52631579,46.84210526,8.387368421
kisanga,tz,-7.390684837,37.94884422,-7.4363,37.7034,76.56,76.15789474,38.84210526,2.547105263
santa rosa,ar,-37.9619203,-65.12282666,-36.6167,-64.2834,58.96,44.02631579,9.894736842,12.01894737
alyangula,au,-15.43777819,139.1696636,-13.8484,136.4192,84.59868421,95.89473684,16,10.02842105
grand forks,ca,48.40308164,-118.2909155,49.0331,-118.4356,29.04552632,78.39473684,63.57894737,2.143157895
bubaque,gw,7.526284576,-17.72006878,11.2833,-15.8334,83.53342105,96.23684211,16.52631579,5.587105263
pontes e lacerda,br,-14.98712826,-59.92453297,-15.2262,-59.3353,76.42105263,90.97368421,62.42105263,4.386578947
nikolskoye,ru,46.40227509,168.7613162,,,,,,
kavaratti,in,8.563348536,66.32704375,10.5669,72.642,83.05421053,99.84210526,16.21052632,4.566052632
notse,tg,6.848295487,1.038941108,6.95,1.1667,79.47631579,81.84210526,29.15789474,5.343157895
vanderhoof,ca,53.96699175,-123.8863867,54.0166,-124.0199,26.93868421,75.5,51.47368421,6.259210526
dalsingh sarai,in,25.57644191,85.87459265,25.6667,85.8333,72.01894737,62.34210526,1.263157895,7.627631579
lephepe,bw,-23.28951445,25.49181936,,,,,,
margate,za,-37.07437005,36.20391021,-30.8636,30.3705,71.22947368,86,12,12.08631579
turukhansk,ru,62.76450276,87.7075985,65.8167,87.9833,-8.145,64.31578947,55.15789474,7.442631579
khormuj,ir,28.10398109,51.93132893,,,,,,
ingham,au,-18.25500821,145.290326,-18.65,146.1667,74.535,96.94736842,67.47368421,8.478157895
oussouye,sn,10.63288146,-19.00718641,12.485,-16.547,82.81684211,85.05263158,24.63157895,6.232368421
lolua,tv,-5.232299045,173.792717,,,,,,
chapais,ca,53.39954045,-72.30706136,49.7834,-74.8492,15.16289474,81.78947368,65.68421053,8.754473684
tadine,nc,-21.97820619,169.3081019,-21.55,167.8833,73.14368421,97.5,66.52631579,13.59947368
itarema,br,5.779102763,-36.33246422,,,,,,
poum,nc,-16.61044473,158.6084128,-20.2334,164.0167,74.62947368,99.97368421,60.42105263,13.91052632
buluang,ph,12.80134957,117.5058197,13.3068,123.3425,78.96052632,94.55263158,65.26315789,4.230789474
visby,se,57.72140443,19.04441387,57.6409,18.296,41.58631579,98.60526316,58.42105263,22.08236842
port macquarie,au,-33.93893391,156.0702668,-31.4334,152.9167,67.97763158,90.02631579,73.68421053,6.815
polunochnoye,ru,60.92015156,60.45538406,60.8697,60.4153,20.56789474,80.73684211,54.73684211,5.231842105
leshukonskoye,ru,67.88547138,46.57597896,64.8989,45.7622,28.96736842,86.94736842,84.84210526,5.272631579
oia,gr,36.16132885,25.03200912,,,,,,
ahuimanu,us,35.21398759,-152.5389696,21.4447,-157.8378,69.31131579,85.92105263,44.21052632,5.369736842
flagstaff,us,35.60977208,-111.3537722,35.1981,-111.6513,37.74631579,55.36842105,13.26315789,6.343684211
auxerre,fr,47.83292241,3.525718714,47.8,3.5667,41.35315789,95.13157895,71.47368421,7.38
kyshtovka,ru,56.89959991,77.45807985,56.555,76.6271,26.20105263,90.68421053,72.94736842,11.40105263
redlands,us,38.6676281,-109.6662732,34.0556,-117.1826,47.80894737,57.42105263,12.94736842,2.182368421
ambikapur,in,23.0481641,83.08898346,23.1167,83.2,62.83657895,79.42105263,31.15789474,5.086842105
piney green,us,33.57974177,-76.71044821,34.716,-77.3203,47.88342105,63.31578947,15.78947368,5.958157895
kyzyl,ru,51.74051978,94.46395254,51.7,94.45,-1.48,75.21052632,38.21052632,2.288157895
ialibu,pg,-7.352477825,144.3706574,-6.2821,143.9935,57.89421053,96.31578947,72,1.913421053
luderitz,na,-27.83479678,13.44422922,-26.6481,15.1594,62.64789474,67.63157895,13.78947368,13.77868421
marivan,ir,35.678377,46.31851893,,,,,,
dwarka,in,21.60169247,68.84722067,22.2394,68.9678,76.24105263,96.23684211,0,17.55815789
krugersdorp,za,-26.18373784,27.79187587,-26.0858,27.7752,67.06342105,32.18421053,17.26315789,4.467105263
toliary,mg,-23.54919482,43.26780883,,,,,,
xingyi,cn,25.15533759,105.7695956,,,,,,
cabrobo,br,-8.357680015,-39.19505009,-8.5142,-39.3101,85.34289474,39.84210526,20.52631579,8.430526316
millerovo,ru,48.9159768,40.4039577,48.9226,40.3967,37.56894737,91.28947368,58.42105263,9.778947368
ambilobe,mg,-9.699944294,49.73972277,-13.2,49.05,80.55236842,70.78947368,23.15789474,7.385789474
port hawkesbury,ca,42.43462049,-61.22168715,45.6169,-61.3486,41.74815789,98.55263158,54.42105263,19.12131579
novikovo,ru,46.65885518,143.3505333,,,,,,
zwedru,lr,5.391459944,-8.026039545,6.0667,-8.1281,75.53868421,94.47368421,71.57894737,4.969210526
mys shmidta,ru,88.11762762,-179.8561073,,,,,,
salym,ru,59.76303721,72.70597683,60.0625,71.4789,24.38421053,88.23684211,83.78947368,4.707631579
kundiawa,pg,-7.082393162,144.9767093,-6.0167,144.9667,60.90026316,96.97368421,73.26315789,1.401315789
meulaboh,id,2.198500557,92.15834229,4.1363,96.1285,79.76526316,100,55.36842105,3.200526316
kudahuvadhoo,mv,3.176808483,70.66427009,2.6708,72.8944,82.30947368,99.97368421,55.89473684,6.794736842
skagen,dk,58.22981592,10.7701085,57.7209,10.5839,44.11184211,100,33.57894737,20.46052632
